[
  { "name": "Le Bernardin", "distinction": "star", "stars": 3, "address": "155 W 51st St, New York, NY 10019", "lat": 40.7614, "lng": -73.9776 },
  { "name": "Eleven Madison Park", "distinction": "star", "stars": 3, "address": "11 Madison Ave, New York, NY 10010", "lat": 40.7425, "lng": -73.9872 },
  { "name": "Per Se", "distinction": "star", "stars": 3, "address": "10 Columbus Cir, New York, NY 10019", "lat": 40.7683, "lng": -73.9826 },
  { "name": "Jungsik", "distinction": "star", "stars": 3, "address": "2 Harrison St, New York, NY 10013", "lat": 40.7188, "lng": -74.0095 },
  { "name": "Sushi Sho", "distinction": "star", "stars": 3, "address": "14W 48th St, New York, NY 10036", "lat": 40.7574, "lng": -73.9803 },
  { "name": "Atomix", "distinction": "star", "stars": 2, "address": "104 E 30th St, New York, NY 10016", "lat": 40.7443, "lng": -73.9815 },
  { "name": "Aquavit", "distinction": "star", "stars": 2, "address": "65 E 55th St, New York, NY 10022", "lat": 40.7609, "lng": -73.9722 },
  { "name": "Aska", "distinction": "star", "stars": 2, "address": "47 S 5th St, Brooklyn, NY 11249", "lat": 40.7114, "lng": -73.9573 },
  { "name": "Atera", "distinction": "star", "stars": 2, "address": "77 Worth St, New York, NY 10013", "lat": 40.7169, "lng": -74.0033 },
  { "name": "Blue Hill at Stone Barns", "distinction": "star", "stars": 2, "address": "630 Bedford Rd, Tarrytown, NY 10591", "lat": 41.0989, "lng": -73.8282 },
  { "name": "César", "distinction": "star", "stars": 2, "address": "4 E 1st St, New York, NY 10003", "lat": 40.7245, "lng": -73.9908 },
  { "name": "Chef's Table at Brooklyn Fare", "distinction": "star", "stars": 2, "address": "431 W 37th St, New York, NY 10018", "lat": 40.7562, "lng": -73.9955 },
  { "name": "Daniel", "distinction": "star", "stars": 2, "address": "60 E 65th St, New York, NY 10065", "lat": 40.7664, "lng": -73.9687 },
  { "name": "Gabriel Kreuther", "distinction": "star", "stars": 2, "address": "41 W 42nd St, New York, NY 10036", "lat": 40.7542, "lng": -73.9835 },
  { "name": "Jean-Georges", "distinction": "star", "stars": 2, "address": "1 Central Park W, New York, NY 10023", "lat": 40.7675, "lng": -73.9811 },
  { "name": "Joo Ok", "distinction": "star", "stars": 2, "address": "20 Warren St, New York, NY 10007", "lat": 40.7146, "lng": -74.0084 },
  { "name": "Masa", "distinction": "star", "stars": 2, "address": "10 Columbus Cir, New York, NY 10019", "lat": 40.7684, "lng": -73.9826 },
  { "name": "odo", "distinction": "star", "stars": 2, "address": "17 W 20th St, New York, NY 10011", "lat": 40.7401, "lng": -73.9926 },
  { "name": "Saga", "distinction": "star", "stars": 2, "address": "70 Pine St, New York, NY 10005", "lat": 40.7068, "lng": -74.0084 },
  { "name": "Sushi Noz", "distinction": "star", "stars": 2, "address": "181 E 78th St, New York, NY 10075", "lat": 40.7750, "lng": -73.9566 },
  { "name": "The Modern", "distinction": "star", "stars": 2, "address": "9 W 53rd St, New York, NY 10019", "lat": 40.7614, "lng": -73.9776 },

  { "name": "Café Boulud", "distinction": "star", "stars": 1, "address": "20 E 76th St, New York, NY 10021", "lat": 40.7743, "lng": -73.9638 },
  { "name": "Casa Mono", "distinction": "star", "stars": 1, "address": "52 Irving Pl, New York, NY 10003", "lat": 40.7357, "lng": -73.9876 },
  { "name": "Caviar Russe", "distinction": "star", "stars": 1, "address": "538 Madison Ave, New York, NY 10022", "lat": 40.7600, "lng": -73.9729 },
  { "name": "Crown Shy", "distinction": "star", "stars": 1, "address": "70 Pine St, New York, NY 10005", "lat": 40.7068, "lng": -74.0084 },
  { "name": "Dirt Candy", "distinction": "star", "stars": 1, "address": "86 Allen St, New York, NY 10002", "lat": 40.7183, "lng": -73.9898 },
  { "name": "Estela", "distinction": "star", "stars": 1, "address": "47 E Houston St, New York, NY 10012", "lat": 40.7253, "lng": -73.9953 },
  { "name": "Francie", "distinction": "star", "stars": 1, "address": "136 Broadway, Brooklyn, NY 11211", "lat": 40.7107, "lng": -73.9626 },
  { "name": "Jeju Noodle Bar", "distinction": "star", "stars": 1, "address": "679 Washington St, New York, NY 10014", "lat": 40.7359, "lng": -74.0076 },
  { "name": "Jua", "distinction": "star", "stars": 1, "address": "36 W 22nd St, New York, NY 10010", "lat": 40.7421, "lng": -73.9920 },
  { "name": "Kochi", "distinction": "star", "stars": 1, "address": "652 10th Ave, New York, NY 10036", "lat": 40.7628, "lng": -73.9971 },
  { "name": "Kosaka", "distinction": "star", "stars": 1, "address": "220 W 13th St, New York, NY 10011", "lat": 40.7398, "lng": -74.0013 },
  { "name": "L'Abeille", "distinction": "star", "stars": 1, "address": "435 Hudson St, New York, NY 10014", "lat": 40.7343, "lng": -74.0059 },
  { "name": "Le Pavillon", "distinction": "star", "stars": 1, "address": "1 Vanderbilt Ave, New York, NY 10017", "lat": 40.7527, "lng": -73.9779 },
  { "name": "Noksu", "distinction": "star", "stars": 1, "address": "461 6th Ave, New York, NY 10011", "lat": 40.7412, "lng": -73.9966 },
  { "name": "Oxalis", "distinction": "star", "stars": 1, "address": "791 Washington Ave, Brooklyn, NY 11238", "lat": 40.6744, "lng": -73.9652 },
  { "name": "Semma", "distinction": "star", "stars": 1, "address": "60 Greenwich Ave, New York, NY 10011", "lat": 40.7357, "lng": -74.0018 },
  { "name": "Shion 69 Leonard Street", "distinction": "star", "stars": 1, "address": "69 Leonard St, New York, NY 10013", "lat": 40.7172, "lng": -74.0040 },
  { "name": "Sushi Nakazawa", "distinction": "star", "stars": 1, "address": "23 Commerce St, New York, NY 10014", "lat": 40.7353, "lng": -74.0067 },
  { "name": "Tuome", "distinction": "star", "stars": 1, "address": "536 E 5th St, New York, NY 10009", "lat": 40.7242, "lng": -73.9783 },
  { "name": "Yoshino", "distinction": "star", "stars": 1, "address": "231 E 43rd St, New York, NY 10017", "lat": 40.7511, "lng": -73.9736 }
]
